[
    {
        "name": "Santiago (CL)",
        "lat": "-33.448890",
        "lng": "-70.669265"
    },
    {
        "name": "Zurich (CH)",
        "lat": "47.376887",
        "lng": "8.541694"
    },
    {
        "name": "Auckland (NZ)",
        "lat": "-36.848460",
        "lng": "174.763332"
    },
    {
        "name": "Sydney (AU)",
        "lat": "-33.868820",
        "lng": "151.209296"
    },
    {
        "name": "Londres (UK)",
        "lat": "51.507351",
        "lng": "-0.127758"
    },
    {
        "name": "Georgia (US)",
        "lat": "32.165622",
        "lng": "-82.900075"
    }
]